{"type":"FeatureCollection","features":[{"type":"Feature","id":1,"geometry":{"type":"Point","coordinates":[-97.762317562999954,30.253296205000026]},"properties":{"OBJECTID":1,"STG":1,"Floors":4,"YearCompleted":2024,"Name":"1301 S Lamar","Address":"1301 S Lamar Blvd Austin, TX 78704","Image_URL":"https://lmac-stg.github.io/STG/images/1301_1.jpg","gif_URL":null,"Height":null,"Image_Name":"1301_1.jpg","gif_Name":null,"Image2_URL":null,"Image2_Name":null,"ORIG_FID":1}},{"type":"Feature","id":2,"geometry":{"type":"Point","coordinates":[-97.752242940999963,30.271500508000031]},"properties":{"OBJECTID":2,"STG":2,"Floors":null,"YearCompleted":null,"Name":"STG Austin Office","Address":"828 W 6th St #300, Austin, Texas 78703","Image_URL":"https://lmac-stg.github.io/STG/images/STG_Office.png","gif_URL":null,"Height":null,"Image_Name":"STG_Office.png","gif_Name":null,"Image2_URL":null,"Image2_Name":null,"ORIG_FID":2}},{"type":"Feature","id":3,"geometry":{"type":"Point","coordinates":[-97.751790588999938,30.265980935000073]},"properties":{"OBJECTID":3,"STG":1,"Floors":35,"YearCompleted":2021,"Name":"Block 185","Address":"601 W 2nd St, Austin, TX 78701","Image_URL":"https://lmac-stg.github.io/STG/images/Block_185.jpg","gif_URL":"https://lmac-stg.github.io/STG/images/Block 185.gif","Height":594,"Image_Name":"Block_185.jpg","gif_Name":null,"Image2_URL":null,"Image2_Name":null,"ORIG_FID":3}},{"type":"Feature","id":4,"geometry":{"type":"Point","coordinates":[-97.752631706999978,30.266559594000057]},"properties":{"OBJECTID":4,"STG":1,"Floors":null,"YearCompleted":2019,"Name":"Seaholm","Address":"211 Power Plant Dr, Austin, TX 78703","Image_URL":"https://lmac-stg.github.io/STG/images/Seaholm.jpg","gif_URL":null,"Height":null,"Image_Name":"Seaholm.jpg","gif_Name":null,"Image2_URL":null,"Image2_Name":null,"ORIG_FID":4}},{"type":"Feature","id":5,"geometry":{"type":"Point","coordinates":[-97.745474428999955,30.266030245000024]},"properties":{"OBJECTID":5,"STG":1,"Floors":null,"YearCompleted":2023,"Name":"Truluck's","Address":"300 Colorado St, Austin, TX 78701","Image_URL":"https://lmac-stg.github.io/STG/images/Trulucks_1.jpg","gif_URL":null,"Height":null,"Image_Name":"Trulucks_1.jpg","gif_Name":null,"Image2_URL":null,"Image2_Name":null,"ORIG_FID":5}},{"type":"Feature","id":6,"geometry":{"type":"Point","coordinates":[-97.720921695999948,30.242412735000073]},"properties":{"OBJECTID":6,"STG":1,"Floors":null,"YearCompleted":2020,"Name":"Oracle","Address":"2300 Oracle Wy, Austin, TX 78741","Image_URL":"https://lmac-stg.github.io/STG/images/Oracle_1.jpg","gif_URL":null,"Height":null,"Image_Name":"Oracle_1.jpg","gif_Name":null,"Image2_URL":null,"Image2_Name":null,"ORIG_FID":6}},{"type":"Feature","id":7,"geometry":{"type":"Point","coordinates":[-97.744738148999943,30.268916300000058]},"properties":{"OBJECTID":7,"STG":1,"Floors":null,"YearCompleted":2020,"Name":"Indeed","Address":null,"Image_URL":"https://lmac-stg.github.io/STG/images/Indeed.jpg","gif_URL":null,"Height":null,"Image_Name":"Indeed.jpg","gif_Name":null,"Image2_URL":null,"Image2_Name":null,"ORIG_FID":7}},{"type":"Feature","id":8,"geometry":{"type":"Point","coordinates":[-97.744087032999971,30.296216104000052]},"properties":{"OBJECTID":8,"STG":1,"Floors":null,"YearCompleted":null,"Name":"Texas French Bread","Address":null,"Image_URL":null,"gif_URL":null,"Height":null,"Image_Name":null,"gif_Name":null,"Image2_URL":null,"Image2_Name":null,"ORIG_FID":8}},{"type":"Feature","id":9,"geometry":{"type":"Point","coordinates":[-97.704908284999988,30.297566452000069]},"properties":{"OBJECTID":9,"STG":1,"Floors":null,"YearCompleted":null,"Name":"Thinkery","Address":"1830 Simond Ave, Austin, TX 78723","Image_URL":null,"gif_URL":null,"Height":null,"Image_Name":null,"gif_Name":null,"Image2_URL":null,"Image2_Name":null,"ORIG_FID":9}},{"type":"Feature","id":10,"geometry":{"type":"Point","coordinates":[-97.737663909999981,30.25964343000004]},"properties":{"OBJECTID":10,"STG":1,"Floors":41,"YearCompleted":2023,"Name":"Vesper","Address":null,"Image_URL":null,"gif_URL":null,"Height":455,"Image_Name":null,"gif_Name":null,"Image2_URL":null,"Image2_Name":null,"ORIG_FID":10}},{"type":"Feature","id":11,"geometry":{"type":"Point","coordinates":[-97.742884248999985,30.262453206000032]},"properties":{"OBJECTID":11,"STG":1,"Floors":null,"YearCompleted":null,"Name":"Global Foundries","Address":null,"Image_URL":null,"gif_URL":null,"Height":null,"Image_Name":null,"gif_Name":null,"Image2_URL":null,"Image2_Name":null,"ORIG_FID":11}},{"type":"Feature","id":12,"geometry":{"type":"Point","coordinates":[-97.736401972999943,30.279595681000046]},"properties":{"OBJECTID":12,"STG":1,"Floors":null,"YearCompleted":null,"Name":"ERS","Address":null,"Image_URL":null,"gif_URL":null,"Height":null,"Image_Name":null,"gif_Name":null,"Image2_URL":null,"Image2_Name":null,"ORIG_FID":12}},{"type":"Feature","id":13,"geometry":{"type":"Point","coordinates":[-97.738874923999958,30.256402817000037]},"properties":{"OBJECTID":13,"STG":1,"Floors":33,"YearCompleted":2021,"Name":"Natiivo","Address":null,"Image_URL":null,"gif_URL":null,"Height":358,"Image_Name":null,"gif_Name":null,"Image2_URL":null,"Image2_Name":null,"ORIG_FID":13}},{"type":"Feature","id":14,"geometry":{"type":"Point","coordinates":[-97.732416623999939,30.254046311000025]},"properties":{"OBJECTID":14,"STG":1,"Floors":null,"YearCompleted":null,"Name":"KMFA","Address":null,"Image_URL":null,"gif_URL":null,"Height":null,"Image_Name":null,"gif_Name":null,"Image2_URL":null,"Image2_Name":null,"ORIG_FID":14}},{"type":"Feature","id":15,"geometry":{"type":"Point","coordinates":[-97.776510601999973,30.246647529000029]},"properties":{"OBJECTID":15,"STG":1,"Floors":null,"YearCompleted":null,"Name":"Zephyr","Address":null,"Image_URL":"https://lmac-stg.github.io/STG/images/Zephyr_1.jpg","gif_URL":null,"Height":null,"Image_Name":"Zephyr_1.jpg","gif_Name":null,"Image2_URL":null,"Image2_Name":null,"ORIG_FID":16}},{"type":"Feature","id":16,"geometry":{"type":"Point","coordinates":[-86.778160986999978,36.165514599000062]},"properties":{"OBJECTID":16,"STG":2,"Floors":null,"YearCompleted":null,"Name":"STG Nashville Office","Address":null,"Image_URL":null,"gif_URL":null,"Height":null,"Image_Name":null,"gif_Name":null,"Image2_URL":null,"Image2_Name":null,"ORIG_FID":17}},{"type":"Feature","id":17,"geometry":{"type":"Point","coordinates":[-86.778610080999954,36.164849165000078]},"properties":{"OBJECTID":17,"STG":1,"Floors":null,"YearCompleted":null,"Name":"Printers and Bank","Address":null,"Image_URL":null,"gif_URL":null,"Height":null,"Image_Name":null,"gif_Name":null,"Image2_URL":null,"Image2_Name":null,"ORIG_FID":18}},{"type":"Feature","id":18,"geometry":{"type":"Point","coordinates":[-86.780508802999975,36.167680139000026]},"properties":{"OBJECTID":18,"STG":1,"Floors":null,"YearCompleted":null,"Name":"Parkway Towers","Address":null,"Image_URL":null,"gif_URL":null,"Height":null,"Image_Name":null,"gif_Name":null,"Image2_URL":null,"Image2_Name":null,"ORIG_FID":19}},{"type":"Feature","id":19,"geometry":{"type":"Point","coordinates":[-86.80538822799997,36.205971728000065]},"properties":{"OBJECTID":19,"STG":1,"Floors":null,"YearCompleted":null,"Name":"Northview","Address":null,"Image_URL":null,"gif_URL":null,"Height":null,"Image_Name":null,"gif_Name":null,"Image2_URL":null,"Image2_Name":null,"ORIG_FID":20}},{"type":"Feature","id":20,"geometry":{"type":"Point","coordinates":[-97.787598521999939,30.48001239000007]},"properties":{"OBJECTID":20,"STG":1,"Floors":null,"YearCompleted":2024,"Name":"Lakeline","Address":null,"Image_URL":null,"gif_URL":null,"Height":null,"Image_Name":null,"gif_Name":null,"Image2_URL":null,"Image2_Name":null,"ORIG_FID":21}},{"type":"Feature","id":21,"geometry":{"type":"Point","coordinates":[-97.752447920999941,30.26765802500006]},"properties":{"OBJECTID":21,"STG":1,"Floors":null,"YearCompleted":2023,"Name":"Thrive","Address":"211 Walter Seaholm Dr #200, Austin, TX 78701","Image_URL":null,"gif_URL":null,"Height":null,"Image_Name":null,"gif_Name":null,"Image2_URL":null,"Image2_Name":null,"ORIG_FID":22}},{"type":"Feature","id":22,"geometry":{"type":"Point","coordinates":[-97.74277423999996,30.277105085000073]},"properties":{"OBJECTID":22,"STG":1,"Floors":null,"YearCompleted":null,"Name":"Butler Snow","Address":null,"Image_URL":null,"gif_URL":null,"Height":null,"Image_Name":null,"gif_Name":null,"Image2_URL":null,"Image2_Name":null,"ORIG_FID":23}},{"type":"Feature","id":23,"geometry":{"type":"Point","coordinates":[-97.707292886999937,30.256558311000049]},"properties":{"OBJECTID":23,"STG":1,"Floors":null,"YearCompleted":null,"Name":"BetterUp","Address":"3100 E 5th St. Suite 350, Austin, TX 78702","Image_URL":null,"gif_URL":null,"Height":null,"Image_Name":null,"gif_Name":null,"Image2_URL":null,"Image2_Name":null,"ORIG_FID":24}},{"type":"Feature","id":24,"geometry":{"type":"Point","coordinates":[-97.653090481999982,30.40700638800007]},"properties":{"OBJECTID":24,"STG":1,"Floors":null,"YearCompleted":null,"Name":"The Pitch","Address":"13000 Harris Ridge Blvd, Austin, TX 78753","Image_URL":null,"gif_URL":null,"Height":null,"Image_Name":null,"gif_Name":null,"Image2_URL":null,"Image2_Name":null,"ORIG_FID":25}},{"type":"Feature","id":25,"geometry":{"type":"Point","coordinates":[-97.722141984999951,30.398626551000064]},"properties":{"OBJECTID":25,"STG":1,"Floors":null,"YearCompleted":null,"Name":"Griffis at The Domain","Address":null,"Image_URL":"https://lmac-stg.github.io/STG/images/Griffis_01.jpg","gif_URL":null,"Height":null,"Image_Name":"Griffis_01.jpg","gif_Name":null,"Image2_URL":null,"Image2_Name":null,"ORIG_FID":26}},{"type":"Feature","id":26,"geometry":{"type":"Point","coordinates":[-97.715075930999944,30.40513698500007]},"properties":{"OBJECTID":26,"STG":1,"Floors":null,"YearCompleted":null,"Name":"The Watson","Address":null,"Image_URL":null,"gif_URL":null,"Height":null,"Image_Name":null,"gif_Name":null,"Image2_URL":null,"Image2_Name":null,"ORIG_FID":27}},{"type":"Feature","id":27,"geometry":{"type":"Point","coordinates":[-97.663234665999937,30.309324787000037]},"properties":{"OBJECTID":27,"STG":1,"Floors":null,"YearCompleted":null,"Name":"Boys & Girls Clubs of Austin","Address":"6648 Ed Bluestein Blvd, Austin, TX 78723","Image_URL":null,"gif_URL":null,"Height":null,"Image_Name":null,"gif_Name":null,"Image2_URL":null,"Image2_Name":null,"ORIG_FID":28}}]}